,City,Lat,Lng,Max Temp,Humidity,Cloudiness,Wind Speed,Country,Date
0,Albany,42.6001,-73.9662,30.0,88,100,1.01,US,1612292778
1,Kjøllefjord,70.9457,27.3465,24.8,86,90,14.97,NO,1612292779
2,Karratha,-20.7377,116.8463,81.0,82,87,15.99,AU,1612292780
3,Carnarvon,-24.8667,113.6333,75.2,100,40,21.85,AU,1612292782
4,Ponta do Sol,32.6667,-17.1,61.0,87,78,3.0,PT,1612292783
5,Hualmay,-11.0964,-77.6139,75.85,63,27,10.71,PE,1612292784
6,Barrow,71.2906,-156.7887,-25.6,68,1,11.5,US,1612292785
7,Chui,-33.6971,-53.4616,84.79,53,96,2.73,UY,1612292620
8,Atuona,-9.8,-139.0333,78.1,81,0,17.6,PF,1612292787
9,Rikitea,-23.1203,-134.9692,77.81,77,56,15.95,PF,1612292557
10,Vaini,-21.2,-175.2,77.0,100,90,10.36,TO,1612292789
11,Westport,41.1415,-73.3579,35.6,75,90,18.41,US,1612292662
12,Hithadhoo,-0.6,73.0833,82.38,72,37,4.92,MV,1612292791
13,Singapore,1.2897,103.8501,78.8,83,75,9.22,SG,1612292604
14,Saint-Augustin,51.226,-58.6502,21.24,90,100,7.63,CA,1612292794
15,Arman',59.7,150.1667,-19.59,79,91,13.58,RU,1612292795
16,Kibala,9.1104,18.3463,86.0,37,0,4.12,TD,1612292796
17,Nome,64.5011,-165.4064,12.2,62,75,25.32,US,1612292797
18,Mareeba,-17.0,145.4333,73.4,94,75,1.14,AU,1612292798
19,Mataura,-46.1927,168.8643,56.37,86,100,1.57,NZ,1612292799
20,Henties Bay,-22.116,14.2845,68.0,86,10,10.36,NA,1612292800
21,Mezhdurechensk,53.6942,88.0603,20.64,96,100,2.53,RU,1612292801
22,Katobu,-4.9408,122.5276,76.1,91,95,3.18,ID,1612292802
23,Bredasdorp,-34.5322,20.0403,68.0,68,0,3.44,ZA,1612292804
24,Portland,45.5234,-122.6762,48.0,74,67,5.01,US,1612292580
25,Berlevåg,70.8578,29.0864,26.6,86,75,28.77,NO,1612292806
26,Kungurtug,50.5994,97.5228,-5.91,83,13,1.14,RU,1612292668
27,Punta Arenas,-53.15,-70.9167,69.8,49,40,17.0,CL,1612292808
28,Dikson,73.5069,80.5464,-21.91,82,0,12.17,RU,1612292809
29,Faya,18.3851,42.4509,62.6,72,0,2.59,SA,1612292810
30,Santa Maria,-29.6842,-53.8069,86.25,66,26,5.17,BR,1612292553
31,Hervey Bay,-25.2986,152.8535,73.99,94,75,10.36,AU,1612292813
32,Kaitangata,-46.2817,169.8464,58.37,80,100,4.27,NZ,1612292700
33,Cape Town,-33.9258,18.4232,71.6,68,0,14.97,ZA,1612292617
34,Pisco,-13.7,-76.2167,77.0,65,0,8.05,PE,1612292671
35,Mar del Plata,-38.0023,-57.5575,68.0,88,90,8.05,AR,1612292817
36,Burnie,-41.0667,145.9167,55.99,85,85,7.0,AU,1612292818
37,São Gabriel da Cachoeira,-0.1303,-67.0892,84.2,74,40,5.75,BR,1612292820
38,Ostrovnoy,68.0531,39.5131,24.69,96,100,18.43,RU,1612292821
39,Hermanus,-34.4187,19.2345,68.0,82,0,3.0,ZA,1612292822
40,Chokurdakh,70.6333,147.9167,-3.69,90,86,12.03,RU,1612292824
41,Clyde River,70.4692,-68.5914,-25.6,68,40,6.91,CA,1612292825
42,San Patricio,28.017,-97.5169,69.01,37,20,9.22,US,1612292826
43,Zhezkazgan,47.8043,67.7144,17.91,90,100,6.38,KZ,1612292828
44,Caravelas,-17.7125,-39.2481,83.25,64,95,9.75,BR,1612292543
45,Natal,-5.795,-35.2094,87.8,65,40,18.41,BR,1612292603
46,Maningrida,-12.0667,134.2667,77.34,91,100,8.75,AU,1612292831
47,French Harbor,16.35,-86.4333,75.99,73,20,11.5,HN,1612292832
48,Umluj,25.0213,37.2685,75.02,76,0,3.85,SA,1612292833
49,Florø,61.5996,5.0328,24.8,80,0,8.05,NO,1612292834
50,Alice Springs,-23.7,133.8833,75.2,29,85,6.91,AU,1612292835
51,Mountain Home,43.133,-115.6912,48.2,49,90,17.27,US,1612292836
52,Nantucket,41.2835,-70.0995,41.0,100,90,21.85,US,1612292838
53,Zhangjiakou,40.81,114.8794,15.49,69,100,0.49,CN,1612292839
54,Sungai Penuh,-2.0833,101.3833,64.0,96,91,3.44,ID,1612292840
55,Hamilton,39.1834,-84.5333,33.8,55,1,10.36,US,1612292733
56,Port Blair,11.6667,92.75,77.07,81,0,10.94,IN,1612292644
57,Tiksi,71.6872,128.8694,-0.63,93,100,15.75,RU,1612292843
58,Birao,10.2849,22.7882,82.31,19,0,4.36,CF,1612292844
59,Khatanga,71.9667,102.5,-30.33,84,3,9.4,RU,1612292845
60,Castro,-24.7911,-50.0119,77.11,77,6,1.99,BR,1612292846
61,Ribeira Grande,38.5167,-28.7,48.2,76,75,32.21,PT,1612292848
62,Iqaluit,63.7506,-68.5145,-18.4,63,75,4.61,CA,1612292849
63,Coyhaique,-45.5752,-72.0662,75.2,43,0,4.61,CL,1612292850
64,Katsuura,35.1333,140.3,42.8,45,0,5.75,JP,1612292742
65,Hobart,-42.8794,147.3294,57.2,67,90,2.3,AU,1612292852
66,Bluff,-46.6,168.3333,57.9,89,100,8.08,NZ,1612292853
67,Ambilobe,-13.2,49.05,76.14,90,100,1.86,MG,1612292854
68,Puerto Ayora,-0.7393,-90.3518,84.2,65,0,17.27,EC,1612292855
69,Narsaq,60.9167,-46.05,24.8,68,75,8.05,GL,1612292856
70,Esperance,-33.8667,121.9,69.8,46,75,14.97,AU,1612292858
71,Tamworth,52.634,-1.6959,48.99,92,100,8.99,GB,1612292859
72,Nikolskoye,59.7035,30.7861,24.8,86,75,8.95,RU,1612292860
73,Bethel,41.3712,-73.414,33.01,86,90,10.36,US,1612292861
74,Port Alfred,-33.5906,26.891,68.0,89,0,20.96,ZA,1612292862
75,Jamestown,42.097,-79.2353,21.99,93,90,14.97,US,1612292863
76,Golden,39.7555,-105.2211,59.0,21,20,4.61,US,1612292775
77,Bambous Virieux,-20.3428,57.7575,80.6,78,40,11.5,MU,1612292865
78,Geraldton,-28.7667,114.6,73.4,83,90,11.5,AU,1612292603
79,Qaanaaq,77.484,-69.3632,-7.26,84,100,3.47,GL,1612292867
80,Souillac,-20.5167,57.5167,80.6,78,40,11.5,MU,1612292868
81,Erenhot,43.6475,111.9767,3.47,86,100,5.44,CN,1612292870
82,Colares,38.7992,-9.4469,60.01,88,75,16.11,PT,1612292871
83,Røros,62.5747,11.3842,-16.6,76,75,5.21,NO,1612292588
84,Husavik,66.0449,-17.3389,10.4,72,0,8.05,IS,1612292873
85,Yurga,55.7231,84.8861,10.49,95,100,10.2,RU,1612292874
86,Bathsheba,13.2167,-59.5167,82.4,57,40,21.85,BB,1612292875
87,Ushuaia,-54.8,-68.3,53.6,82,75,14.97,AR,1612292819
88,Pangnirtung,66.1451,-65.7125,-22.0,63,40,1.43,CA,1612292877
89,Saint Paul Harbor,57.79,-152.4072,28.4,93,90,12.5,US,1612292878
90,Teluknaga,-6.0989,106.6381,75.99,94,75,9.22,ID,1612292879
91,Kavieng,-2.5744,150.7967,81.07,79,100,12.68,PG,1612292881
92,Dingzhou,38.5131,114.9956,17.6,49,0,2.24,CN,1612292882
93,Antalaha,-14.9003,50.2788,77.86,82,36,7.81,MG,1612292883
94,Busselton,-33.65,115.3333,61.0,84,4,1.01,AU,1612292884
95,Buala,-8.145,159.5921,80.46,81,100,9.84,SB,1612292885
96,Wembley,-31.9333,115.8,72.0,78,0,8.05,AU,1612292886
97,Portree,57.4129,-6.1942,37.0,76,100,10.0,GB,1612292887
98,Upernavik,72.7868,-56.1549,-8.12,87,100,5.93,GL,1612292888
99,Saldanha,-33.0117,17.9442,73.4,53,0,13.8,ZA,1612292890
100,Teknāf,20.8624,92.3058,62.1,63,0,10.69,BD,1612292891
101,George Town,5.4112,100.3354,78.8,89,20,5.75,MY,1612292711
102,Stettler,52.3168,-112.7186,10.4,100,100,12.66,CA,1612292893
103,Tilichiki,60.4667,166.1,12.43,98,100,3.56,RU,1612292894
104,San Martín,-33.081,-68.4681,69.8,49,40,3.44,AR,1612292895
105,Iskateley,67.6803,53.1512,6.57,94,99,15.86,RU,1612292896
106,Astoria,46.1879,-123.8313,43.0,93,90,5.75,US,1612292609
107,Hilo,19.7297,-155.09,75.2,60,1,4.61,US,1612292730
108,Nouadhibou,20.931,-17.0347,73.4,56,0,13.8,MR,1612292900
109,Brae,60.3964,-1.353,37.4,65,40,17.27,GB,1612292901
110,Rørvik,64.8621,11.2373,19.4,79,20,4.61,NO,1612292902
111,Hermosillo,29.0667,-110.9667,80.01,25,75,5.75,MX,1612292770
112,Provideniya,64.3833,-173.3,7.05,92,100,14.32,RU,1612292904
113,Fortuna,40.5982,-124.1573,52.0,93,75,2.55,US,1612292905
114,Nefteyugansk,61.0998,72.6035,15.8,92,0,6.71,RU,1612292906
115,Vanimo,-2.6741,141.3028,78.21,85,100,8.55,PG,1612292907
116,Province of Trapani,37.8333,12.6667,57.2,88,20,5.75,IT,1612292908
117,Butaritari,3.0707,172.7902,81.66,83,75,19.28,KI,1612292909
118,Airai,-8.9266,125.4092,60.96,100,100,2.19,TL,1612292910
119,Port-Cartier,50.0334,-66.8654,28.0,59,100,8.05,CA,1612292912
120,Avarua,-21.2078,-159.775,82.4,74,0,9.22,CK,1612292913
121,Beringovskiy,63.05,179.3167,8.78,95,100,8.01,RU,1612292914
122,Touros,-5.1989,-35.4608,84.2,65,40,18.41,BR,1612292915
123,Pochutla,15.7432,-96.4661,88.0,55,1,12.66,MX,1612292916
124,Rio Grande,-32.035,-52.0986,87.8,66,40,11.5,BR,1612292810
125,Saskylakh,71.9167,114.0833,-10.55,88,100,19.6,RU,1612292918
126,Agüimes,27.9054,-15.4461,68.0,77,20,12.66,ES,1612292919
127,São Filipe,14.8961,-24.4956,74.79,67,2,11.21,CV,1612292920
128,Yellowknife,62.456,-114.3525,-11.99,70,90,12.66,CA,1612292922
129,Torbay,47.6666,-52.7314,28.99,74,90,3.44,CA,1612292923
130,Samarai,-10.6167,150.6667,81.54,77,94,10.83,PG,1612292924
131,Sept-Îles,50.2001,-66.3821,28.0,59,100,8.05,CA,1612292925
132,Namatanai,-3.6667,152.4333,77.16,91,100,15.95,PG,1612292926
133,Lorengau,-2.0226,147.2712,81.16,84,99,12.06,PG,1612292927
134,Youghal,51.95,-7.8506,48.0,93,75,12.66,IE,1612292928
135,Port Lincoln,-34.7333,135.8667,60.19,85,5,14.05,AU,1612292808
136,Naze,28.3667,129.4833,51.15,75,3,18.16,JP,1612292930
137,Diego de Almagro,-26.3667,-70.05,82.8,18,89,14.9,CL,1612292932
138,São Paulo de Olivença,-3.3783,-68.8725,80.42,85,83,2.73,BR,1612292933
139,Saint-Leu,-21.15,55.2833,80.6,78,0,2.3,RE,1612292934
140,Seymchan,62.8833,152.4333,-25.62,84,100,1.95,RU,1612292935
141,Tuatapere,-46.1333,167.6833,57.88,86,100,3.85,NZ,1612292645
142,Waddān,29.1614,16.139,51.01,91,3,4.52,LY,1612292937
143,Sinnamary,5.3833,-52.95,78.67,87,97,15.03,GF,1612292938
144,Tasiilaq,65.6145,-37.6368,19.4,93,90,2.3,GL,1612292939
145,Kochubey,44.3861,46.5825,42.71,92,100,5.06,RU,1612292941
146,Labis,2.385,103.021,72.21,92,52,3.29,MY,1612292887
147,Pevek,69.7008,170.3133,9.93,92,100,8.99,RU,1612292943
148,Sioux Lookout,50.1001,-91.917,23.0,80,90,12.66,CA,1612292944
149,Palana,59.1167,159.9667,-8.48,91,71,11.36,RU,1612292945
150,Gijang,35.2442,129.2139,24.8,58,0,2.3,KR,1612292946
151,Orillia,44.6087,-79.4207,36.0,63,95,12.66,CA,1612292760
152,Longyearbyen,78.2186,15.6401,19.4,93,75,2.3,SJ,1612292948
153,Gananoque,44.3334,-76.1661,26.01,72,100,11.99,CA,1612292803
154,Lagoa,39.05,-27.9833,55.17,66,61,35.28,PT,1612292951
155,Morón,-34.6534,-58.6198,82.0,63,84,1.99,AR,1612292720
156,Ibanda,-2.7974,32.4746,77.0,73,40,8.05,TZ,1612292953
157,New Norfolk,-42.7826,147.0587,57.0,70,100,1.19,AU,1612292954
158,Okha,53.5739,142.9478,-24.32,84,100,16.22,RU,1612292955
159,Saint-Philippe,-21.3585,55.7679,80.6,78,0,2.3,RE,1612292956
160,Lavrentiya,65.5833,-171.0,5.07,90,100,21.45,RU,1612292957
161,Kruisfontein,-34.0033,24.7314,69.01,78,0,3.0,ZA,1612292958
162,Constitución,-35.3333,-72.4167,67.08,65,14,5.93,CL,1612292959
163,High Rock,26.6208,-78.2833,59.0,51,40,20.71,BS,1612292960
164,East London,-33.0153,27.9116,69.8,78,0,16.11,ZA,1612292962
165,Shipitsyno,61.2806,46.5208,16.75,95,90,8.68,RU,1612292963
166,Matagami,49.7502,-77.6328,14.0,100,90,8.05,CA,1612292964
167,Cidreira,-30.1811,-50.2056,81.39,71,0,10.27,BR,1612292965
168,Udimskiy,61.1417,45.9144,15.42,96,100,9.22,RU,1612292966
169,Port Elizabeth,-33.918,25.5701,69.8,83,0,13.8,ZA,1612292967
170,Luján,-34.5703,-59.105,78.01,67,84,10.2,AR,1612292905
171,Aquiraz,-3.9014,-38.3911,86.0,66,20,16.11,BR,1612292931
172,Sooke,48.3746,-123.7276,44.6,77,100,3.44,CA,1612292970
173,Inta,66.0317,60.1659,13.46,96,100,17.2,RU,1612292971
174,Cayenne,4.9333,-52.3333,80.6,94,75,11.5,GF,1612292973
175,Afonso Bezerra,-5.4983,-36.5056,95.04,29,81,18.61,BR,1612292974
176,Great Yarmouth,52.6083,1.7305,48.2,93,98,8.05,GB,1612292975
177,Kapaa,22.0752,-159.319,69.8,100,75,3.44,US,1612292976
178,Waitati,-45.75,170.5667,59.0,90,0,4.0,NZ,1612292977
179,Aksarka,66.5606,67.7975,4.53,93,97,7.56,RU,1612292978
180,Srednekolymsk,67.45,153.6833,-28.55,81,35,2.3,RU,1612292979
181,Dingle,10.9995,122.6711,74.01,92,100,8.01,PH,1612292980
182,Phuthaditjhaba,-28.5242,28.8158,55.63,87,100,4.54,ZA,1612292981
183,Nāhan,30.55,77.3,55.33,40,0,5.28,IN,1612292982
184,Freeport,40.6576,-73.5832,35.01,86,90,18.41,US,1612292870
185,Alberton,46.8168,-64.0654,30.2,100,100,32.21,CA,1612292985
186,Hong Kong,22.2855,114.1577,64.0,81,73,5.01,HK,1612292986
187,Pacific Grove,36.6177,-121.9166,55.0,100,90,4.52,US,1612292987
188,Hvide Sande,56.0045,8.1294,28.99,86,100,14.36,DK,1612292988
189,Fairbanks,64.8378,-147.7164,-20.0,63,1,3.31,US,1612292989
190,Tohāna,29.7,75.9,56.98,42,0,6.4,IN,1612292990
191,Bjæverskov,55.4576,12.0365,27.0,93,75,3.44,DK,1612292991
192,Maţāy,28.419,30.7792,57.51,38,28,0.34,EG,1612292992
193,San Francisco,37.7749,-122.4194,57.0,88,90,5.75,US,1612292723
194,Flinders,-34.5833,150.8552,63.0,81,12,3.0,AU,1612292995
195,Port Hedland,-20.3167,118.5667,82.4,83,90,11.5,AU,1612292901
196,Sault Ste. Marie,46.5168,-84.3333,26.6,46,1,9.22,CA,1612292997
197,Le Pradet,43.1066,6.0172,57.99,87,0,7.61,FR,1612292998
198,Norman Wells,65.282,-126.8329,-18.4,69,90,13.8,CA,1612292999
199,Cherskiy,68.75,161.3,-1.77,84,0,2.01,RU,1612293000
200,Artyom,40.4723,50.333,48.2,87,75,11.5,AZ,1612293001
201,Luxor,25.6989,32.6421,68.0,30,0,3.83,EG,1612293003
202,Lüshunkou,38.8,121.2667,17.6,73,0,2.24,CN,1612292710
203,Port Hardy,50.6996,-127.4199,41.0,100,75,3.44,CA,1612293006
204,Marovoay,-16.1,46.6333,84.2,84,20,8.05,MG,1612293007
205,Qingdao,36.0986,120.3719,36.0,64,0,6.71,CN,1612293008
206,Nortelândia,-14.4547,-56.8028,93.09,48,100,3.65,BR,1612293009
207,Tanout,14.9709,8.8879,73.67,15,0,10.92,NE,1612293010
208,Knysna,-34.0363,23.0471,68.0,60,0,5.75,ZA,1612293011
209,Cabo Rojo,18.0866,-67.1457,86.0,69,2,5.01,PR,1612293012
210,Bariloche,-41.1456,-71.3082,78.8,21,40,3.44,AR,1612293014
211,Tiarei,-17.5333,-149.3333,86.0,66,20,3.44,PF,1612293015
212,Hofn,64.2539,-15.2082,32.49,91,100,14.63,IS,1612293016
213,Luganville,-15.5333,167.1667,77.72,82,34,3.89,VU,1612293017
214,Khudumelapye,-23.8833,24.75,69.39,75,98,17.07,BW,1612293018
215,Lucknow,26.85,80.9167,57.2,94,0,4.27,IN,1612293019
216,Parrita,9.5201,-84.3225,80.6,64,40,24.16,CR,1612293020
217,Isfahan,32.6572,51.6776,28.4,31,0,0.51,IR,1612293021
218,Hanna,51.6334,-111.9018,10.4,100,76,12.66,CA,1612292973
219,Bandrele,-12.9067,45.1914,82.4,78,0,5.75,YT,1612293024
220,Peterhead,57.5058,-1.7981,37.4,87,90,18.41,GB,1612293025
221,Goundam,16.4145,-3.6708,76.78,15,29,9.19,ML,1612293026
222,Warrington,53.3925,-2.5802,48.2,93,90,9.22,GB,1612293027
223,Aykhal,66.0,111.5,-31.88,81,100,10.2,RU,1612293028
224,Iberia,29.9502,-91.7507,55.0,47,1,4.61,US,1612293029
225,Campo do Brito,-10.7333,-37.4933,84.2,65,20,14.97,BR,1612293030
226,Peleduy,59.6289,112.7406,-25.92,82,100,8.72,RU,1612293031
227,Ishigaki,24.3448,124.1572,65.64,74,98,24.47,JP,1612292897
228,Payo,-3.7508,103.6372,73.8,96,100,2.75,ID,1612293034
229,Cabo San Lucas,22.8909,-109.9124,84.2,56,40,10.36,MX,1612292822
230,Qaqortoq,60.7167,-46.0333,24.8,68,75,8.05,GL,1612293036
231,Sitka,57.0531,-135.33,35.6,60,40,5.75,US,1612293037
232,Northam,51.0333,-4.2167,50.0,92,98,5.01,GB,1612293038
233,Turan,16.0678,108.2208,69.8,88,75,1.1,VN,1612293039
234,Mandiana,10.6333,-8.6833,81.3,15,0,1.72,GN,1612293040
235,Jacupiranga,-24.6925,-48.0022,90.61,53,55,6.13,BR,1612293041
236,Beyneu,45.3167,55.2,41.76,65,98,13.98,KZ,1612293042
237,Hobyo,5.3505,48.5268,75.74,71,94,18.81,SO,1612293044
238,Tarko-Sale,64.9225,77.785,9.52,96,99,11.43,RU,1612293045
239,Agadez,19.75,10.25,66.31,25,0,7.67,NE,1612293046
240,Minyar,55.0709,57.5485,29.26,97,100,7.4,RU,1612293047
241,Zhigansk,66.7697,123.3711,-31.02,85,100,9.17,RU,1612293048
242,Hulan Ergi,47.2042,123.6333,-15.68,80,0,7.29,CN,1612292956
243,Moses Lake,47.1301,-119.2781,50.0,53,90,10.36,US,1612292960
244,Talnakh,69.4865,88.3972,-11.87,82,99,6.6,RU,1612293051
245,Laas,46.6166,10.7002,36.0,86,75,2.3,IT,1612293052
246,Boden,65.8252,21.6886,-0.4,92,90,2.3,SE,1612293054
247,Forsytheganj,52.6333,29.7333,17.35,96,0,8.12,BY,1612293055
248,Fuengirola,36.54,-4.6247,66.2,59,0,11.5,ES,1612293056
249,Snåase,64.2457,12.3778,19.4,73,0,13.8,NO,1612293057
250,Vilyuysk,63.7553,121.6247,-38.65,80,100,9.13,RU,1612293058
251,Ilabaya,-17.4208,-70.5133,75.36,44,30,10.02,PE,1612293059
252,Eureka,40.8021,-124.1637,52.0,81,100,2.55,US,1612293060
253,San Cristobal,7.7669,-72.225,96.8,23,20,9.22,VE,1612293062
254,Chippewa Falls,44.9369,-91.3929,30.0,64,90,1.9,US,1612293008
255,Mossamedes,-15.1961,12.1522,74.25,72,65,7.74,AO,1612293064
256,Pombal,-6.7703,-37.8017,98.82,21,33,15.3,BR,1612293065
257,Richards Bay,-28.783,32.0377,70.34,75,100,3.22,ZA,1612293066
258,Yerbogachën,61.2767,108.0108,-36.26,82,22,3.87,RU,1612293067
259,Ati,13.2154,18.3353,79.36,16,0,8.9,TD,1612292821
260,Kozhva,65.1073,57.0459,11.86,95,100,8.72,RU,1612293069
261,Flin Flon,54.7682,-101.865,21.2,93,90,8.05,CA,1612293070
262,Arraial do Cabo,-22.9661,-42.0278,87.8,57,0,23.02,BR,1612293071
263,Atar,20.5169,-13.0499,78.96,14,0,11.07,MR,1612293073
264,George Town,5.4112,100.3354,78.8,89,20,5.75,MY,1612293074
265,Vardø,70.3705,31.1107,28.4,74,40,23.02,NO,1612293075
266,Kindu,-2.95,25.95,73.31,77,94,3.33,CD,1612293076
267,Thompson,55.7435,-97.8558,15.8,92,90,3.44,CA,1612293029
268,Thinadhoo,0.5333,72.9333,82.94,70,100,6.67,MV,1612292879
269,Severo-Kuril'sk,50.6789,156.125,26.55,94,55,40.26,RU,1612293079
270,Madimba,-10.4,40.3333,78.94,76,0,5.01,TZ,1612293080
271,Tigil',57.8,158.6667,-9.56,87,0,8.21,RU,1612293081
272,Wangkui,46.8333,126.5,-20.76,83,0,7.52,CN,1612293082
273,Gizo Government Station,-8.103,156.8419,79.48,88,100,16.78,SB,1612293084
274,Adrar,20.5022,-10.0711,77.0,18,99,8.59,MR,1612293085
275,Ürümqi,43.801,87.6005,17.6,79,100,6.71,CN,1612292887
276,Aklavik,68.2191,-135.0107,-25.6,68,40,4.61,CA,1612293087
277,Manali,13.1667,80.2667,78.8,69,40,11.5,IN,1612293088
278,Teguise,29.0605,-13.564,64.4,88,20,9.22,ES,1612293089
279,Tuktoyaktuk,69.4541,-133.0374,-31.0,75,20,5.75,CA,1612293090
280,Ichinoseki,38.9167,141.1333,20.98,94,31,0.29,JP,1612293091
281,Broome,42.2506,-75.833,28.99,80,90,12.66,US,1612293092
282,Los Llanos de Aridane,28.6585,-17.9182,66.2,77,90,11.5,ES,1612293094
283,Wanning,18.8003,110.3967,68.45,84,70,5.59,CN,1612293095
284,Dunedin,-45.8742,170.5036,59.0,90,1,4.0,NZ,1612293096
285,Resistencia,-27.4606,-58.9839,77.0,94,90,10.36,AR,1612293006
286,Along,28.1667,94.7667,50.13,59,0,1.95,IN,1612293098
287,Mira,45.4358,12.1348,44.01,93,0,3.44,IT,1612292822
288,Yershov,51.3513,48.2766,33.82,100,100,6.31,RU,1612293100
289,Codrington,-38.2667,141.9667,58.19,78,86,7.52,AU,1612293101
290,Lüderitz,-26.6481,15.1594,65.89,83,0,12.71,NA,1612293103
291,San Juan,-31.5375,-68.5364,73.4,33,93,11.59,AR,1612293104
292,Mahébourg,-20.4081,57.7,80.6,78,40,11.5,MU,1612293105
293,San Policarpo,12.1791,125.5072,79.81,81,99,12.39,PH,1612293106
294,St. George's,12.0564,-61.7485,82.4,65,40,23.02,GD,1612293107
295,Tamala,52.541,43.2515,21.6,97,97,10.33,RU,1612293108
296,Barcelos,41.5388,-8.6151,55.4,100,90,26.46,PT,1612292943
297,Quatre Cocos,-20.2078,57.7625,80.6,78,40,11.5,MU,1612293111
298,Bayonet Point,28.3267,-82.6834,52.0,64,0,10.0,US,1612293112
299,Faanui,-16.4833,-151.75,81.18,75,10,14.45,PF,1612293113
300,Neiafu,-18.65,-173.9833,78.8,100,90,6.91,TO,1612293114
301,Rock Springs,41.5875,-109.2029,35.6,48,1,4.61,US,1612293025
302,Kamenka,51.3223,42.7678,32.0,96,100,4.74,RU,1612293116
303,Cuencamé de Ceniceros,24.8711,-103.6964,71.87,29,100,4.52,MX,1612293117
304,Asău,46.4333,26.4,32.0,74,37,4.56,RO,1612293118
305,Illela,13.7292,5.2975,80.67,14,3,9.78,NG,1612293119
306,Kralendijk,12.15,-68.2667,84.2,61,0,18.41,BQ,1612293121
307,Yashkino,55.8736,85.4265,14.0,67,40,11.18,RU,1612293122
308,Ust-Kuyga,70.0167,135.6,-27.09,84,100,6.22,RU,1612292885
309,Coquimbo,-29.9533,-71.3436,66.2,63,20,13.8,CL,1612293124
310,Bayan,46.0833,127.4,-19.53,84,0,8.79,CN,1612293125
311,Dudinka,69.4058,86.1778,-4.14,92,100,9.28,RU,1612293126
312,Garoua,9.3,13.4,84.2,20,0,4.61,CM,1612293127
313,Esim,4.8699,-2.2405,79.83,83,0,7.2,GH,1612293128
314,Waingapu,-9.6567,120.2641,78.93,81,100,7.36,ID,1612293130
315,Hokitika,-42.7167,170.9667,56.03,85,5,2.1,NZ,1612293131
316,Sucre,-19.0333,-65.2627,68.72,57,65,12.12,BO,1612293036
317,Salgueiro,-8.0742,-39.1192,95.11,22,100,13.0,BR,1612293133
318,Kahului,20.8947,-156.47,75.2,69,20,1.77,US,1612293134
319,Coolum Beach,-26.5333,153.1,71.01,100,15,1.99,AU,1612293135
320,Iquique,-20.2208,-70.1431,77.0,47,0,19.57,CL,1612292996
321,Yumen,40.2833,97.2,26.35,67,100,12.73,CN,1612293137
322,Nanortalik,60.1432,-45.2371,17.38,87,0,15.64,GL,1612293139
323,Sarāhan,31.5167,77.8,36.03,64,53,6.64,IN,1612293140
324,Cabedelo,-6.9811,-34.8339,86.0,62,40,13.8,BR,1612293141
325,Leningradskiy,69.3833,178.4167,-1.93,88,100,23.98,RU,1612293142
326,Bilibino,68.0546,166.4372,-3.35,85,0,5.06,RU,1612293143
327,Chicama,-7.8447,-79.1469,71.6,78,0,11.5,PE,1612293144
328,Kargasok,59.0556,80.8572,8.19,95,100,7.09,RU,1612293145
329,Rong Kwang,18.339,100.3174,75.0,53,2,1.68,TH,1612293146
330,Lloydminster,53.2835,-110.0016,14.0,92,90,6.91,CA,1612293147
331,Abilene,32.4487,-99.7331,66.99,25,1,19.57,US,1612293149
332,Mahibadhoo,3.7833,72.9667,82.87,77,7,17.54,MV,1612293150
333,Plouzané,48.3833,-4.6167,53.6,82,90,21.85,FR,1612293151
334,Saint-François,46.4154,3.9054,55.4,82,90,5.75,FR,1612293152
335,Alugan,12.2188,125.4808,79.25,82,99,11.88,PH,1612293153
336,Lakselv,70.0513,24.9718,14.0,85,75,2.3,NO,1612293154
337,Porangatu,-13.4408,-49.1486,87.78,58,94,3.09,BR,1612293155
338,Oshawa,43.9001,-78.8496,28.99,63,90,16.11,CA,1612292904
339,Grindavik,63.8424,-22.4338,35.6,60,75,25.32,IS,1612293157
340,Concepción,-36.827,-73.0498,69.8,64,0,11.5,CL,1612293018
341,Lázaro Cárdenas,17.9583,-102.2,83.98,54,0,10.0,MX,1612293160
342,Hashtrūd,37.4779,47.0508,22.87,89,0,1.7,IR,1612293161
343,Kavaratti,10.5669,72.642,81.54,71,0,4.9,IN,1612293162
344,Banjar,-8.19,114.9675,78.8,94,40,9.22,ID,1612293163
345,Santa Cruz de la Sierra,-17.8,-63.1667,87.8,74,75,17.27,BO,1612293004
346,Acapulco de Juárez,16.8634,-99.8901,86.0,58,1,4.61,MX,1612293165
347,Zyryanka,65.75,150.85,-22.5,86,100,5.39,RU,1612293166
348,Labuhan,-6.8844,112.2051,78.26,86,100,10.18,ID,1612293167
349,Anito,12.4497,125.2886,77.41,86,100,12.1,PH,1612293168
350,Chara,56.9064,118.2631,-30.53,67,7,2.71,RU,1612293169
351,Sibolga,1.7427,98.7792,75.99,84,99,4.41,ID,1612293171
352,Ballina,-28.8667,153.5667,68.0,94,90,5.75,AU,1612293172
353,Saint-Pierre,-21.3393,55.4781,80.6,78,0,4.61,RE,1612293173
354,Palu,-0.8917,119.8707,76.26,81,100,1.74,ID,1612293174
355,Guerrero Negro,27.9769,-114.0611,73.35,29,100,2.17,MX,1612293175
356,Lompoc,34.6391,-120.4579,60.01,67,1,3.44,US,1612293176
357,Pandan,14.0453,124.1694,77.56,84,99,16.22,PH,1612293177
358,Saurimo,-9.6608,20.3916,68.27,91,100,3.47,AO,1612293178
359,Laguna,38.421,-121.4238,54.0,94,90,5.75,US,1612293179
360,Inawashiro,37.5667,140.1167,30.0,88,17,2.86,JP,1612293156
361,Petropavlovsk-Kamchatskiy,53.0452,158.6483,14.0,92,90,11.18,RU,1612293182
362,Muravlenko,63.7898,74.523,8.69,95,88,13.73,RU,1612293183
363,Klaksvík,62.2266,-6.589,35.6,75,9,13.8,FO,1612293184
364,Ayan,56.45,138.1667,-26.59,70,100,12.93,RU,1612293185
365,Chapais,49.7834,-74.8492,26.6,59,1,9.22,CA,1612293186
366,Marapanim,-0.7175,-47.6997,86.63,59,100,9.42,BR,1612293187
367,Kiryat Gat,31.61,34.7642,66.0,46,67,1.99,IL,1612292941
368,Oistins,13.0667,-59.5333,82.4,57,40,21.85,BB,1612293189
369,Bengkulu,-3.8004,102.2655,75.69,89,100,5.26,ID,1612293191
370,Kokopo,-4.352,152.2633,77.92,88,100,12.62,PG,1612293192
371,Menongue,-14.6585,17.691,67.44,76,100,2.35,AO,1612293193
372,Constantine,36.365,6.6147,49.05,82,7,1.32,DZ,1612293194
373,Rantepao,-2.9701,119.8978,67.06,87,100,2.75,ID,1612293195
374,Lata,40.1629,-8.3327,57.99,96,100,11.99,PT,1612293196
375,Suzhou,31.3114,120.6181,41.0,95,35,7.96,CN,1612293181
376,Solotvyn,48.7021,24.4221,28.4,93,56,4.47,UA,1612293198
377,Wawa,9.9022,4.4192,84.79,18,0,2.93,NG,1612293199
378,Bambanglipuro,-7.95,110.2833,78.4,85,89,5.61,ID,1612293200
379,Voh,-20.9667,164.7,71.49,91,100,10.27,NC,1612293202
380,Hambantota,6.1241,81.1185,77.0,100,0,6.91,LK,1612293203
381,Brigantine,39.4101,-74.3646,36.0,86,90,17.27,US,1612293204
382,Ciudad Bolivar,8.1222,-63.5497,92.91,31,80,8.68,VE,1612293205
383,Gīdolē,5.65,37.3667,65.26,28,84,4.14,ET,1612293206
384,Nishifukuma,33.7667,130.4667,41.0,56,75,10.36,JP,1612292987
385,Opuwo,-18.0607,13.84,75.81,37,75,8.59,NA,1612293208
386,Ilulissat,69.2167,-51.1,-2.2,71,75,20.71,GL,1612293209
387,San Juan de los Morros,9.9115,-67.3538,91.4,52,40,7.23,VE,1612293210
388,Margate,51.3813,1.3862,52.0,81,0,4.0,GB,1612293212
389,Vila Velha,-20.3297,-40.2925,86.0,62,20,14.97,BR,1612293141
390,Butiama,-1.7667,33.9667,65.75,71,100,3.38,TZ,1612293214
391,Ust-Maya,60.4167,134.5333,-40.61,80,100,0.22,RU,1612293215
392,Markala,13.7021,-6.0659,77.04,14,0,6.62,ML,1612293216
393,Progreso,21.2833,-89.6667,75.2,41,75,9.22,MX,1612293217
394,Sørland,67.667,12.6934,32.0,59,40,8.05,NO,1612293218
395,Nebolchi,59.1239,33.3454,21.0,96,100,5.75,RU,1612293219
396,Arica,-18.475,-70.3042,77.0,57,0,16.11,CL,1612293220
397,Stromness,58.965,-3.296,35.6,80,20,13.8,GB,1612293222
398,Orobó,-7.745,-35.6022,86.0,51,75,20.71,BR,1612293223
399,Ayna,-12.65,-73.9167,71.6,43,40,6.91,PE,1612293224
400,Aksay,47.26,39.87,46.99,93,40,8.95,RU,1612293225
401,Kīhei,20.785,-156.4656,75.2,69,20,2.04,US,1612293226
402,Salalah,17.0151,54.0924,71.6,60,0,2.3,OM,1612293227
403,Anloga,5.7947,0.8973,86.0,79,20,11.5,GH,1612293228
404,Kerman,30.2832,57.0788,41.0,24,0,4.61,IR,1612293005
405,Kayerkan,69.3497,87.7602,-8.9,87,100,4.83,RU,1612293230
406,Fukuechō,32.6881,128.8419,42.89,70,100,20.24,JP,1612293231
407,Yangambi,0.8102,24.4336,78.31,57,93,1.3,CD,1612293233
408,Batticaloa,7.7102,81.6924,78.04,82,100,13.98,LK,1612293234
409,Sabang,5.8933,95.3214,81.37,79,6,17.05,ID,1612293235
410,Elko,41.0002,-115.5012,50.0,40,1,13.8,US,1612293236
411,Sos'va,59.1766,61.8558,11.64,96,1,4.54,RU,1612293237
412,Novikovo,51.1537,37.8879,27.86,98,100,6.82,RU,1612293238
413,Maniitsoq,65.4167,-52.9,-1.44,79,0,7.43,GL,1612293239
414,Kyaka,-1.2522,31.4203,64.02,77,51,3.22,TZ,1612293240
415,Maceió,-9.6658,-35.7353,84.2,65,40,5.75,BR,1612293241
416,Kangaatsiaq,68.3065,-53.4641,1.45,93,100,7.25,GL,1612293243
417,Kyra,49.5776,111.9753,-18.56,78,0,4.9,RU,1612293244
418,Hasaki,35.7333,140.8333,30.2,80,20,1.14,JP,1612293226
419,Amuntai,-2.4177,115.2494,75.51,95,99,1.1,ID,1612293246
420,Mount Isa,-20.7333,139.5,78.8,78,86,2.3,AU,1612293247
421,Mingoyo,-10.1,39.6333,74.34,91,100,1.28,TZ,1612293248
422,Yauya,-8.9833,-77.3,63.82,42,33,6.8,PE,1612293249
423,Fort Myers Beach,26.452,-81.9481,59.0,47,1,19.57,US,1612293250
424,Sola,-13.8833,167.55,78.8,100,90,9.22,VU,1612293251
425,Chapada dos Guimarães,-15.4606,-55.7497,95.0,46,75,6.91,BR,1612293252
426,Tomatlán,19.9333,-105.25,87.71,46,100,8.41,MX,1612293253
427,Poum,-20.2333,164.0167,76.95,82,100,25.1,NC,1612293255
428,Mezen',65.8522,44.24,17.67,97,100,7.81,RU,1612293256
429,Kayes,14.0,-11.0,85.68,12,25,1.9,ML,1612293257
430,Byron Bay,-28.65,153.6167,68.0,94,90,5.75,AU,1612293258
431,Asunción Nochixtlán,17.4667,-97.2333,62.71,38,0,7.18,MX,1612293259
432,Ancud,-41.8697,-73.8203,69.8,56,0,9.22,CL,1612293260
433,Tūkrah,32.5341,20.5791,58.55,67,70,10.22,LY,1612293261
434,Paphos,34.7667,32.4167,55.4,71,0,8.05,CY,1612293263
435,Mogok,22.9167,96.5,53.19,53,0,1.7,MM,1612293264
436,Tadine,-21.55,167.8833,78.78,87,100,39.37,NC,1612293265
437,Balad,34.0164,44.1453,57.24,46,59,8.9,IQ,1612293266
438,Tongling,30.95,117.7833,43.38,83,46,2.44,CN,1612293267
439,Sungai Raya,0.7,108.9,76.8,88,77,10.78,ID,1612293085
440,Severo-Yeniseyskiy,60.3725,93.0408,-7.08,90,100,3.91,RU,1612293269
441,Puerto Colombia,10.9878,-74.9547,84.2,70,0,11.5,CO,1612293270
442,Sobolevo,54.4299,31.8996,15.39,95,100,10.8,RU,1612293271
443,Maura,60.25,11.0167,19.0,93,75,9.22,NO,1612293273
444,Banda Aceh,5.5577,95.3222,77.97,83,51,10.0,ID,1612293274
445,San Jerónimo,-11.9472,-75.2829,62.04,49,57,5.59,PE,1612293275
446,Ambon City,-3.6954,128.1814,78.8,83,40,3.44,ID,1612293250
447,Palmas Bellas,9.2319,-80.0867,87.01,64,3,4.0,PA,1612293277
448,Krasnyy Kholm,58.0607,37.1203,15.73,96,100,6.24,RU,1612293278
449,Bonavista,48.6499,-53.1147,28.0,86,87,2.3,CA,1612293279
450,Ilām,26.9167,87.9167,50.23,64,0,4.45,NP,1612293280
451,Sur,22.5667,59.5289,65.95,74,0,0.83,OM,1612293281
452,Goderich,43.7501,-81.7165,28.4,74,91,19.57,CA,1612293283
453,Muros,42.7762,-9.0603,57.99,91,100,10.0,ES,1612293284
454,Cabatuan,10.8794,122.486,74.39,90,95,12.08,PH,1612293285
455,Manokwari,-0.8667,134.0833,78.17,79,94,5.55,ID,1612293286
456,Malanje,-9.5402,16.341,66.65,94,100,4.16,AO,1612293287
457,‘Ewa Beach,21.3156,-158.0072,71.6,88,75,9.91,US,1612293288
458,Takaungu,-3.6837,39.8566,80.6,78,75,6.91,KE,1612293289
459,Thunder Bay,48.4001,-89.3168,28.99,59,20,5.75,CA,1612293248
460,Lebu,-37.6167,-73.65,63.03,65,61,16.04,CL,1612293009
461,Ukiah,39.1502,-123.2078,53.6,71,90,4.61,US,1612293292
462,Lagos,6.5833,3.75,81.3,76,0,7.47,NG,1612293098
463,Berdigestyakh,62.0989,126.6992,-41.08,78,100,7.76,RU,1612293240
464,Porto Santo,33.072,-16.3415,62.6,77,75,6.91,PT,1612293296
465,Caucayá,-0.1934,-74.7819,92.68,44,99,4.5,CO,1612293297
466,Ribeira Brava,32.65,-17.0667,61.0,87,85,3.0,PT,1612293298
467,Pathein,16.7833,94.7333,63.93,67,0,7.02,MM,1612293299
468,Svetlaya,46.5389,138.3297,-14.24,80,0,8.3,RU,1612293301
469,Santo Antônio do Tauá,-1.1519,-48.1294,89.6,58,75,10.36,BR,1612293303
470,Barugo,11.3242,124.7383,75.52,86,97,4.12,PH,1612293304
471,Port Moresby,-9.4431,147.1797,75.2,100,75,9.22,PG,1612293305
472,Kanniyākumāri,8.0833,77.5667,78.55,69,0,22.91,IN,1612293306
473,Newport,51.5877,-2.9984,50.0,96,100,5.01,GB,1612293308
474,Makhachkala,42.9764,47.5024,41.0,93,75,2.24,RU,1612293309
475,South Gate,33.9547,-118.212,70.0,42,1,2.48,US,1612293158
476,Xanxerê,-26.8769,-52.4042,78.8,69,75,11.5,BR,1612293311
477,Arandis,-22.4167,14.9667,68.0,86,0,7.09,NA,1612293312
478,La Plaine,15.3333,-61.25,82.4,57,40,4.61,DM,1612293313
479,Qui Nhon,13.7667,109.2333,70.47,89,41,9.42,VN,1612293314
480,Machalí,-34.1833,-70.6667,77.0,41,40,5.44,CL,1612293181
481,Yar-Sale,66.8333,70.8333,4.14,94,100,7.63,RU,1612293317
482,Padang,-0.9492,100.3543,77.0,94,40,5.59,ID,1612293318
483,Rawson,-43.3002,-65.1023,80.91,25,0,12.5,AR,1612293319
484,Samaná,19.2056,-69.3369,86.0,70,40,6.91,DO,1612293320
485,Lodeynoye Pole,60.726,33.5531,16.45,97,100,3.33,RU,1612293321
486,Mitsamiouli,-11.3847,43.2844,83.26,71,51,2.39,KM,1612293322
487,El Jícaro,14.9167,-89.9,78.8,44,20,20.71,GT,1612293323
488,Plum,40.5004,-79.7495,30.99,40,100,4.0,US,1612293325
489,Beloha,-25.1667,45.05,78.22,86,22,11.68,MG,1612293326
490,Samarkand,39.6542,66.9597,46.4,71,34,9.22,UZ,1612293327
491,Iki-Burul,45.8208,44.6472,37.4,100,9,11.18,RU,1612293328
492,Atikokan,48.7555,-91.6216,24.21,97,74,4.47,CA,1612293329
493,Novomyrhorod,48.7811,31.642,29.86,99,100,4.09,UA,1612293330
494,Alofi,-19.0595,-169.9187,77.0,100,100,4.61,NU,1612293331
495,Usinsk,65.9939,57.5281,12.04,96,100,16.06,RU,1612293333
496,Pasni,25.2631,63.471,69.21,72,0,10.4,PK,1612293334
497,Boguchar,49.9358,40.545,38.28,98,99,3.83,RU,1612293335
498,Ribas do Rio Pardo,-20.4431,-53.7592,88.93,53,100,2.44,BR,1612293336
499,Kununurra,-15.7667,128.7333,77.0,100,90,8.05,AU,1612293337
500,Departamento de Maldonado,-34.6667,-54.9167,77.0,78,40,11.5,UY,1612293146
501,Umba,66.6871,34.3429,11.14,94,96,6.02,RU,1612293339
502,Chardara,41.2547,67.9692,43.93,78,0,10.25,KZ,1612293341
503,Loandjili,-4.7561,11.8578,79.09,84,99,7.56,CG,1612293342
504,San Sebastián de los Reyes,40.5443,-3.6159,53.6,82,90,8.05,ES,1612293342
505,Kintampo,8.0563,-1.7306,84.18,18,0,1.23,GH,1612293344
506,Anadyr,64.75,177.4833,14.0,79,75,6.71,RU,1612293345
507,Daryāpur,20.9333,77.3333,63.28,28,11,5.3,IN,1612293346
508,Susanville,40.4163,-120.653,44.6,61,20,14.97,US,1612293209
509,Acapetahua,15.2833,-92.7,89.6,48,1,6.91,MX,1612293349
510,Abhā,18.2164,42.5053,62.6,72,0,1.81,SA,1612293340
511,Tsimmerbude,54.675,20.1347,30.2,86,90,11.18,RU,1612293351
512,Havøysund,70.9963,24.6622,28.4,64,75,28.77,NO,1612293352
513,Kangaba,11.9333,-8.4167,83.39,13,0,3.91,ML,1612293074
514,Itarema,-2.9248,-39.9167,84.69,61,0,17.0,BR,1612293354
515,Shimoda,34.6667,138.95,35.01,63,0,1.99,JP,1612293355
516,Fasa,28.9383,53.6482,41.0,36,0,6.91,IR,1612293356
517,St Austell,50.3383,-4.7658,50.0,81,75,23.02,GB,1612293358
518,Nachingwea,-10.3833,38.7667,72.66,89,100,2.66,TZ,1612293359
519,St-Jean-Port-Joli,47.2171,-70.2658,28.4,80,100,23.02,CA,1612293360
520,Kasongo-Lunda,-6.4667,16.8167,73.6,82,99,1.28,CD,1612293361
521,La Plata,-34.9215,-57.9545,77.0,69,29,1.01,AR,1612293362
522,Fairview,40.8126,-73.999,33.8,80,90,6.91,US,1612293304
523,Weligama,5.9667,80.4167,74.61,87,100,7.56,LK,1612293364
524,Bījār,35.8668,47.6051,33.01,84,0,2.98,IR,1612293365
525,Cockburn Town,21.4612,-71.1419,78.8,73,40,13.8,TC,1612293367
526,Tessalit,20.1986,1.0114,71.92,19,0,8.97,ML,1612293368
527,Saint George,37.1041,-113.5841,60.8,41,75,6.91,US,1612293369
528,Pa Sang,18.5262,98.9394,71.01,77,0,1.14,TH,1612293370
529,Keti Bandar,24.1447,67.4497,68.79,81,0,8.37,PK,1612293371
530,Murupara,-38.4667,176.7,55.08,75,1,1.41,NZ,1612293372
531,Ixtapa,20.7,-105.2,75.2,78,75,9.22,MX,1612293251
532,Kieta,-6.2167,155.6333,80.44,81,72,10.38,PG,1612293374
533,Puerto Ayacucho,5.6639,-67.6236,93.96,43,66,2.06,VE,1612293375
534,San Matías,-16.3667,-58.4,94.41,47,100,3.85,BO,1612293377
535,North Bend,43.4065,-124.2243,51.8,71,20,10.36,US,1612293378
536,Shafranovo,53.9667,54.7667,26.26,99,100,6.67,RU,1612293379
537,Aden,12.7794,45.0367,75.47,72,0,8.55,YE,1612293202
538,Les Cayes,18.2,-73.75,81.77,63,6,8.48,HT,1612293381
539,Zhanakorgan,43.9098,67.2495,33.62,84,0,2.39,KZ,1612293382
540,Jalu,29.0331,21.5482,59.32,42,19,6.89,LY,1612293383
541,Qalyub,30.1792,31.2056,69.8,30,50,8.05,EG,1612293384
542,Farafangana,-22.8167,47.8333,79.45,84,16,8.52,MG,1612293386
543,Balgazyn,51.0,95.2,-3.62,85,0,1.83,RU,1612293387
544,Cheyenne,41.14,-104.8203,57.2,23,1,17.27,US,1612293388
545,Gamboma,-1.8764,15.8644,79.11,72,100,4.14,CG,1612293389
546,Salé,34.0389,-6.8166,61.0,94,100,5.75,MA,1612293390
547,Ludvika,60.1496,15.1878,23.0,93,90,9.22,SE,1612293391
548,Haines Junction,60.7522,-137.5108,-20.2,76,100,2.08,CA,1612293392
549,Lüleburgaz,41.4039,27.3592,48.2,93,75,5.75,TR,1612293181
550,Coahuayana Viejo,18.7333,-103.6833,80.6,54,40,7.47,MX,1612293394
551,Moyale,3.5167,39.0584,75.99,32,72,15.97,KE,1612293396
552,Oxford,51.7522,-1.256,50.0,87,75,10.36,GB,1612293397
553,Sechura,-5.5569,-80.8222,82.49,53,1,13.38,PE,1612293398
554,Emba,48.8264,58.1442,30.87,98,100,11.72,KZ,1612293399
555,Kudahuvadhoo,2.6708,72.8944,81.93,75,100,13.29,MV,1612293400
556,Ossora,59.2353,163.0719,1.89,92,100,2.46,RU,1612293401
557,Mawlaik,23.6333,94.4167,58.64,61,0,1.52,MM,1612293402
558,Kuçovë,40.8003,19.9167,52.65,73,39,4.41,AL,1612293403
559,Boda,4.3189,17.4695,81.23,40,82,1.39,CF,1612293404
560,Mokhsogollokh,61.4681,128.9203,-38.63,80,100,8.05,RU,1612293406
561,Pedersore,63.65,22.6833,5.0,85,90,5.75,FI,1612293407
562,Oranjemund,-28.55,16.4333,66.25,83,0,5.46,NA,1612293408
563,Melilla,35.2937,-2.9383,59.0,82,0,2.3,ES,1612293409
564,Manta,-0.95,-80.7333,82.4,74,75,6.91,EC,1612293410
565,Kattivākkam,13.2167,80.3167,78.8,69,40,11.5,IN,1612293411
566,Novobiryusinskiy,56.9578,97.7076,-7.49,90,100,3.49,RU,1612293412
567,Bahía Honda,22.9036,-83.1592,68.43,59,25,13.69,CU,1612293413
568,Cabinda,-5.55,12.2,79.0,82,100,7.65,AO,1612293414
569,Buchanan,5.8808,-10.0467,78.8,94,75,7.36,LR,1612293416
570,Moose Factory,51.2585,-80.6094,8.6,92,90,5.75,CA,1612293417
571,Mutsu,41.2894,141.2169,21.2,68,75,9.22,JP,1612293418
572,Qasigiannguit,68.8193,-51.1922,-2.2,71,75,20.71,GL,1612293419
573,Camacha,33.0833,-16.3333,62.6,72,40,11.5,PT,1612293420
574,Bonthe,7.5264,-12.505,81.64,73,0,10.07,SL,1612293421
575,Mehamn,71.0357,27.8492,24.8,86,90,14.97,NO,1612293423
576,Española,35.9911,-106.0806,52.0,39,40,3.44,US,1612293306
577,Mexico,15.0646,120.7198,71.6,83,40,4.61,PH,1612293260
578,Moengo,5.6167,-54.4,78.48,91,90,6.78,SR,1612293426
